{
  "code": "3-2",
  "name": "キス島沖",
  "meta": {},
  "nodes": [
    {
      "id": "B",
      "type": "supply",
      "lat": 52.42780673267009,
      "lng": -187.0785191689743,
      "name": "弾薬 +50~150",
      "meta": {}
    },
    {
      "id": "F",
      "type": "relay",
      "lat": 51.846247515968855,
      "lng": -182.12221159270263,
      "name": "天祐は我に在り。艦隊泊地突入！救出作戦開始！",
      "meta": {}
    },
    {
      "id": "I",
      "type": "supply",
      "lat": 51.54808345533368,
      "lng": -177.55949314748784,
      "name": "家具箱(小) +1",
      "meta": {}
    },
    {
      "id": "L",
      "type": "boss",
      "lat": 52.845754863350066,
      "lng": -178.48073477796842,
      "name": "敵キス島包囲艦隊",
      "meta": {}
    },
    {
      "id": "D",
      "type": "relay",
      "lat": 51.66789350520989,
      "lng": -184.9217515690355,
      "name": "......帰ろう。帰れば、また来ることができる。",
      "meta": {}
    },
    {
      "id": "E",
      "type": "relay",
      "lat": 50.4759571197344,
      "lng": -183.1261635769835,
      "name": "突入海域の霧が......。",
      "meta": {}
    },
    {
      "id": "G",
      "type": "whirlpool",
      "lat": 49.33582002528428,
      "lng": -180.9352347244311,
      "name": "司令官！うずしおが発生しました！",
      "meta": {}
    },
    {
      "id": "H",
      "type": "normal",
      "lat": 50.21739602324956,
      "lng": -179.3091731747027,
      "name": "敵北方水上打撃艦隊",
      "meta": {}
    },
    {
      "id": "J",
      "type": "normal",
      "lat": 49.62864603555349,
      "lng": -175.54243416115338,
      "name": "敵北方攻撃任務群 先遣護衛戦隊",
      "meta": {}
    },
    {
      "id": "K",
      "type": "normal",
      "lat": 49.71724135578742,
      "lng": -172.99189863356656,
      "name": "敵北方攻撃任務群 機動部隊",
      "meta": {}
    },
    {
      "id": "C",
      "type": "normal",
      "lat": 47.27351711050636,
      "lng": -184.60104874471352,
      "name": "敵水雷戦隊",
      "meta": {}
    },
    {
      "id": "A",
      "type": "normal",
      "lat": 50.53191324753024,
      "lng": -187.20301236559445,
      "name": "敵北方遊撃任務部隊",
      "meta": {}
    },
    {
      "id": "Start",
      "type": "start",
      "lat": 49.45416961752085,
      "lng": -193.20245100428366,
      "name": "Start",
      "meta": {}
    }
  ],
  "edges": [
    {
      "from": "Start",
      "to": "A",
      "arrow": false
    },
    {
      "from": "Start",
      "to": "C",
      "arrow": false
    },
    {
      "from": "A",
      "to": "B",
      "arrow": true
    },
    {
      "from": "A",
      "to": "C",
      "arrow": false
    },
    {
      "from": "C",
      "to": "E",
      "arrow": false
    },
    {
      "from": "C",
      "to": "G",
      "arrow": false
    },
    {
      "from": "E",
      "to": "D",
      "arrow": true
    },
    {
      "from": "E",
      "to": "F",
      "arrow": false
    },
    {
      "from": "G",
      "to": "F",
      "arrow": false
    },
    {
      "from": "G",
      "to": "H",
      "arrow": false
    },
    {
      "from": "G",
      "to": "J",
      "arrow": false
    },
    {
      "from": "F",
      "to": "L",
      "arrow": true
    },
    {
      "from": "H",
      "to": "I",
      "arrow": true
    },
    {
      "from": "H",
      "to": "F",
      "arrow": false
    },
    {
      "from": "J",
      "to": "K",
      "arrow": true
    }
  ]
}